{ "alternateSearchRegions" : [ { "address" : { "addressLine" : "",
            "adminDistrict" : "Tamil Nadu",
            "countryRegion" : "India",
            "district" : "",
            "formattedAddress" : "Chennai, Chennai, Tamil Nadu, India",
            "locality" : "Chennai",
            "postalCode" : "",
            "postalTown" : ""
          },
        "explicitLocation" : { "location" : { "latitude" : 13.05882453918457,
                "longitude" : 80.24222564697265
              },
            "name" : "Chennai, India",
            "precision" : 1
          },
        "geocodeLocations" : [ { "location" : { "latitude" : 13.05882453918457,
                  "longitude" : 80.24222564697265
                },
              "name" : null,
              "precision" : 1
            } ],
        "mapBounds" : { "locationRect" : { "center" : { "latitude" : 13.058825016021728,
                    "longitude" : 80.24222183227539
                  },
                "height" : 0.19580936431884766,
                "width" : 0.13729095458984375
              },
            "type" : 0
          },
        "matchCode" : 1,
        "matchConfidence" : 1,
        "source" : "Query"
      } ],
  "hasMore" : false,
  "parseResults" : [ { "keyword" : "KFC",
        "location" : { "location" : { "latitude" : 13.091059684753418,
                "longitude" : 80.29119110107422
              },
            "name" : "Chennai, India"
          },
        "matchConfidence" : 2000
      },
      { "keyword" : "KFC",
        "location" : { "location" : { "latitude" : 13.05882453918457,
                "longitude" : 80.24222564697265
              },
            "name" : "Chennai, India"
          },
        "matchConfidence" : 2000
      }
    ],
  "responseSummary" : { "authResultCode" : 0,
      "copyright" : "Copyright Â© 2012 Microsoft and its suppliers. All rights reserved. This API cannot be accessed and the content and any results may not be used, reproduced or transmitted in any manner without express written permission from Microsoft Corporation.",
      "errorMessage" : null,
      "statusCode" : 0,
      "traceId" : "b6e41b6f-4ec4-4ace-832b-df6b463fff6a|BAYM000001"
    },
  "searchRegion" : { "address" : { "addressLine" : "",
          "adminDistrict" : "Tamil Nadu",
          "countryRegion" : "India",
          "district" : "",
          "formattedAddress" : "Chennai, India",
          "locality" : "Chennai",
          "postalCode" : "",
          "postalTown" : ""
        },
      "explicitLocation" : { "location" : { "latitude" : 13.091059684753418,
              "longitude" : 80.29119110107422
            },
          "name" : "Chennai, India",
          "precision" : 1
        },
      "geocodeLocations" : [ { "location" : { "latitude" : 13.091059684753418,
                "longitude" : 80.29119110107422
              },
            "name" : null,
            "precision" : 1
          } ],
      "mapBounds" : { "locationRect" : { "center" : { "latitude" : 13.07626485824585,
                  "longitude" : 80.26866149902344
                },
              "height" : 0.12957477569580078,
              "width" : 0.100311279296875
            },
          "type" : 0
        },
      "matchCode" : 1,
      "matchConfidence" : -1,
      "source" : "Query"
    },
  "searchResults" : [ { "address" : "DR. Radhakrishnan Road, Mylapore",
        "birdsEyeSceneIndicator" : 0,
        "city" : "Chennai",
        "country" : "IN",
        "entityType" : 0,
        "hoursOfOperation" : null,
        "id" : "YN4070x251869368",
        "location" : { "latitude" : 13.043530000000001,
            "longitude" : 80.273589000000001
          },
        "name" : "KFC",
        "phone" : "+9118005445774",
        "postalCode" : "600004",
        "reviewCount" : 0,
        "state" : "Tamil Nadu",
        "structuredDescription" : null,
        "userRating" : 0,
        "website" : ""
      },
      { "address" : "Whites Road, Thousand Lights",
        "birdsEyeSceneIndicator" : 0,
        "city" : "Chennai",
        "country" : "IN",
        "entityType" : 0,
        "hoursOfOperation" : null,
        "id" : "YN4070x247021412",
        "location" : { "latitude" : 13.057959,
            "longitude" : 80.264049
          },
        "name" : "KFC",
        "phone" : "+9118005445774",
        "postalCode" : "600002",
        "reviewCount" : 0,
        "state" : "Tamil Nadu",
        "structuredDescription" : null,
        "userRating" : 0,
        "website" : ""
      },
      { "address" : "Thyagaraya Road, Thyagaraya Nagar",
        "birdsEyeSceneIndicator" : 0,
        "city" : "Chennai",
        "country" : "IN",
        "entityType" : 0,
        "hoursOfOperation" : null,
        "id" : "YN4070x248434764",
        "location" : { "latitude" : 13.040190000000001,
            "longitude" : 80.241698999999997
          },
        "name" : "KFC",
        "phone" : "+9118005445774",
        "postalCode" : "600017",
        "reviewCount" : 0,
        "state" : "Tamil Nadu",
        "structuredDescription" : null,
        "userRating" : 0,
        "website" : ""
      },
      { "address" : "Karneswarar Pagoda Street, Mylapore",
        "birdsEyeSceneIndicator" : 0,
        "city" : "Chennai",
        "country" : "IN",
        "entityType" : 0,
        "hoursOfOperation" : null,
        "id" : "YN4070x245967184",
        "location" : { "latitude" : 13.042699000000001,
            "longitude" : 80.274410000000003
          },
        "name" : "KFC",
        "phone" : "+914443533636",
        "postalCode" : "600004",
        "reviewCount" : 0,
        "state" : "Tamil Nadu",
        "structuredDescription" : null,
        "userRating" : 0,
        "website" : ""
      },
      { "address" : "Kasturibai Nagar 3rd Cross Street, Adyar",
        "birdsEyeSceneIndicator" : 0,
        "city" : "Chennai",
        "country" : "IN",
        "entityType" : 0,
        "hoursOfOperation" : null,
        "id" : "YN4070x249484555",
        "location" : { "latitude" : 13.005499,
            "longitude" : 80.251630000000006
          },
        "name" : "KFC",
        "phone" : "+9118005445774",
        "postalCode" : "600020",
        "reviewCount" : 0,
        "state" : "Tamil Nadu",
        "structuredDescription" : null,
        "userRating" : 0,
        "website" : ""
      },
      { "address" : "Uthamar Gandhi Salai, Nungambakkam",
        "birdsEyeSceneIndicator" : 0,
        "city" : "Chennai",
        "country" : "IN",
        "entityType" : 0,
        "hoursOfOperation" : null,
        "id" : "YN4070x248460185",
        "location" : { "latitude" : 13.061999,
            "longitude" : 80.245660000000001
          },
        "name" : "KFC",
        "phone" : "+914442664333",
        "postalCode" : "600034",
        "reviewCount" : 0,
        "state" : "Tamil Nadu",
        "structuredDescription" : null,
        "userRating" : 0,
        "website" : ""
      },
      { "address" : "2nd Avenue, Anna Nagar",
        "birdsEyeSceneIndicator" : 0,
        "city" : "Chennai",
        "country" : "IN",
        "entityType" : 0,
        "hoursOfOperation" : null,
        "id" : "YN4070x247378871",
        "location" : { "latitude" : 13.085179,
            "longitude" : 80.204490000000007
          },
        "name" : "KFC",
        "phone" : "+914442612222",
        "postalCode" : "600040",
        "reviewCount" : 0,
        "state" : "Tamil Nadu",
        "structuredDescription" : null,
        "userRating" : 0,
        "website" : ""
      },
      { "address" : "Santhome High Road, Thoraipakkam",
        "birdsEyeSceneIndicator" : 0,
        "city" : "Chennai",
        "country" : "IN",
        "entityType" : 0,
        "hoursOfOperation" : null,
        "id" : "YN4070x246674017",
        "location" : { "latitude" : 13.02637,
            "longitude" : 80.275408999999996
          },
        "name" : "KFC",
        "phone" : "+9118005445774",
        "postalCode" : "600028",
        "reviewCount" : 0,
        "state" : "Tamil Nadu",
        "structuredDescription" : null,
        "userRating" : 0,
        "website" : ""
      },
      { "address" : "Anna Salai, Thousand Lights",
        "birdsEyeSceneIndicator" : 0,
        "city" : "Chennai",
        "country" : "IN",
        "entityType" : 0,
        "hoursOfOperation" : null,
        "id" : "YN4070x251980408",
        "location" : { "latitude" : 13.061260000000001,
            "longitude" : 80.261809
          },
        "name" : "KFC",
        "phone" : "+9118005445774",
        "postalCode" : "600006",
        "reviewCount" : 0,
        "state" : "Tamil Nadu",
        "structuredDescription" : null,
        "userRating" : 0,
        "website" : ""
      },
      { "address" : "Velachery Main Road, Velacheri",
        "birdsEyeSceneIndicator" : 0,
        "city" : "Chennai",
        "country" : "IN",
        "entityType" : 0,
        "hoursOfOperation" : null,
        "id" : "YN4070x246704305",
        "location" : { "latitude" : 12.972599000000001,
            "longitude" : 80.219549000000001
          },
        "name" : "KFC",
        "phone" : "+914422593239",
        "postalCode" : "600042",
        "reviewCount" : 0,
        "state" : "Tamil Nadu",
        "structuredDescription" : null,
        "userRating" : 0,
        "website" : ""
      }
    ]
}